{
  "students": [
    {
      "id": "1",
      "name": "John",
      "location": "India",
      "phone": "1234567890",
      "courses": [
        "Java",
        "Selenium"
      ]
    },
    {
      "id": "2",
      "name": "Kim",
      "location": "india",
      "phone": "98876543213",
      "courses": [
        "Phython",
        "Appium"
      ]
    },
    {
      "id": "3",
      "name": "smith",
      "location": "Canada",
      "phone": "165498765",
      "courses": [
        "C#",
        "RestAPI"
      ]
    },
    {
      "id": "5942",
      "name": "dhanush",
      "location": "India",
      "phone": "8778718287",
      "courses": [
        "Java",
        "Selenium",
        "Postman",
        "RestAPI",
        "Playwright"
      ]
    },
    {
      "id": "2120",
      "name": "dhanush",
      "location": "India",
      "phone": "8778718287",
      "courses": [
        "Java",
        "Selenium",
        "Postman",
        "RestAPI",
        "Playwright"
      ]
    },
    {
      "id": "9056",
      "name": "dhanush",
      "location": "India",
      "phone": "8778718287",
      "courses": [
        "Java",
        "Selenium",
        "Postman",
        "RestAPI",
        "Playwright"
      ]
    },
    {
      "id": "3049",
      "name": "dhanush",
      "location": "India",
      "phone": "8778718287",
      "courses": [
        "Java",
        "Selenium",
        "Postman",
        "RestAPI",
        "Playwright"
      ]
    },
    {
      "id": "2673",
      "name": "dhanush",
      "location": "India",
      "phone": "8778718287",
      "courses": [
        "Java",
        "Selenium",
        "Postman",
        "RestAPI",
        "Playwright"
      ]
    }
  ]
}